{"features": [{"properties": {}, "geometry": {"coordinates": [121.44343879031237, 31.207570983863118], "type": "Point"}, "bikes": 257, "type": "Feature"}, {"properties": {"station": "七宝"}, "geometry": {"coordinates": [121.34882432933009, 31.155364678184498], "type": "Point"}, "bikes": 0, "type": "Feature"}, {"properties": {"station": "三林"}, "geometry": {"coordinates": [121.51232441787553, 31.143310799728642], "type": "Point"}, "bikes": 0, "type": "Feature"}, {"properties": {"station": "三林东"}, "geometry": {"coordinates": [121.52323368244738, 31.14652508348235], "type": "Point"}, "bikes": 0, "type": "Feature"}, {"properties": {"station": "三门路"}, "geometry": {"coordinates": [121.50799517049789, 31.31309147023961], "type": "Point"}, "bikes": 0, "type": "Feature"}, {"properties": {"station": "上南路"}, "geometry": {"coordinates": [121.50641282615508, 31.149112456634267], "type": "Point"}, "bikes": 0, "type": "Feature"}, {"properties": {"station": "上大路"}, "geometry": {"coordinates": [121.40917904964138, 31.313523580629315], "type": "Point"}, "bikes": 0, "type": "Feature"}, {"properties": {"station": "上海体育场","bikes": 311}, "geometry": {"coordinates": [121.44371311565101, 31.185521626172694], "type": "Point"}, "bikes": 311, "type": "Feature"}, {"properties": {"station": "上海体育馆","bikes": 385}, "geometry": {"coordinates": [121.43705494092909, 31.182722479037928], "type": "Point"}, "bikes": 385, "type": "Feature"}, {"properties": {"station": "上海动物园"}, "geometry": {"coordinates": [121.36802420861451, 31.190193987444363], "type": "Point"}, "bikes": 0, "type": "Feature"}, {"properties": {"station": "上海南站"}, "geometry": {"coordinates": [121.43013581785462, 31.1546882895589], "type": "Point"}, "bikes": 0, "type": "Feature"}, {"properties": {"station": "上海图书馆","bikes": 257}, "geometry": {"coordinates": [121.44343879031237, 31.207570983863118], "type": "Point"}, "bikes": 257, "type": "Feature"}, {"properties": {"station": "上海游泳馆","bikes": 417}, "geometry": {"coordinates": [121.4413695531946, 31.17939640791577], "type": "Point"}, "bikes": 417, "type": "Feature"}, {"properties": {"station": "上海火车站","bikes": 928}, "geometry": {"coordinates": [121.45580523010531, 31.24722802213976], "type": "Point"}, "bikes": 928, "type": "Feature"}, {"properties": {"station": "上海科技馆"}, "geometry": {"coordinates": [121.54296075651668, 31.21976006243433], "type": "Point"}, "bikes": 0, "type": "Feature"}, {"properties": {"station": "上海西站"}, "geometry": {"coordinates": [121.3995217963426, 31.26402206282826], "type": "Point"}, "bikes": 0, "type": "Feature"}, {"properties": {"station": "上海马戏城"}, "geometry": {"coordinates": [121.45212090786323, 31.279316280742993], "type": "Point"}, "bikes": 0, "type": "Feature"}, {"properties": {"station": "世纪公园"}, "geometry": {"coordinates": [121.55050963740068, 31.210579130453606], "type": "Point"}, "bikes": 0, "type": "Feature"}, {"properties": {"station": "世纪大道", "bikes": 364}, "geometry": {"coordinates": [121.52710487067272, 31.22889232359548], "type": "Point"}, "bikes": 364, "type": "Feature"}, {"properties": {"station": "东安路", "bikes": 463}, "geometry": {"coordinates": [121.45474096208387, 31.19063724208337], "type": "Point"}, "bikes": 463, "type": "Feature"}, {"properties": {"station": "东川路"}, "geometry": {"coordinates": [121.4198816325649, 31.01817606663319], "type": "Point"}, "bikes": 0, "type": "Feature"}, {"properties": {"station": "东方体育中心"}, "geometry": {"coordinates": [121.48035206401129, 31.1534473113927], "type": "Point"}, "bikes": 0, "type": "Feature"}, {"properties": {"station": "东昌路","bikes": 424}, "geometry": {"coordinates": [121.51567018559844, 31.233220760629376], "type": "Point"}, "bikes": 424, "type": "Feature"}, {"properties": {"station": "东明路", "bikes": 314}, "geometry": {"coordinates": [121.51100690462818, 31.17273725768231], "type": "Point"}, "bikes": 314, "type": "Feature"}, {"properties": {"station": "东陆路"}, "geometry": {"coordinates": [121.57886972578382, 31.28249657164053], "type": "Point"}, "bikes": 0, "type": "Feature"}, {"properties": {"station": "中兴路", "bikes": 85}, "geometry": {"coordinates": [121.46863197770557, 31.254467518561388], "type": "Point"}, "bikes": 85, "type": "Feature"}, {"properties": {"station": "中华艺术宫", "bikes": 300}, "geometry": {"coordinates": [121.4937458716661, 31.184972850007277], "type": "Point"}, "bikes": 300, "type": "Feature"}, {"properties": {"station": "中山公园", "bikes": 289}, "geometry": {"coordinates": [121.41621048510926, 31.218222120188734], "type": "Point"}, "bikes": 289, "type": "Feature"}, {"properties": {"station": "中山北路", "bikes": 0}, "geometry": {"coordinates": [121.45937829291408, 31.259516296150416], "type": "Point"}, "bikes": 0, "type": "Feature"}, {"properties": {"station": "中春路"}, "geometry": {"coordinates": [121.33877429456082, 31.149860448696764], "type": "Point"}, "bikes": 0, "type": "Feature"}, {"properties": {"station": "丰庄"}, "geometry": {"coordinates": [121.35531214937316, 31.242424875125327], "type": "Point"}, "bikes": 0, "type": "Feature"}, {"properties": {"station": "临平路"}, "geometry": {"coordinates": [121.50088719498645, 31.260949165642312], "type": "Point"}, "bikes": 0, "type": "Feature"}, {"properties": {"station": "临沂新村", "bikes": 410}, "geometry": {"coordinates": [121.51755359069277, 31.1937122909819], "type": "Point"}, "bikes": 410, "type": "Feature"}, {"properties": {"station": "临港大道"}, "geometry": {"coordinates": [121.91066263081674, 30.923606918099505], "type": "Point"}, "bikes": 0, "type": "Feature"}, {"properties": {"station": "九亭"}, "geometry": {"coordinates": [121.31869886917752, 31.137308476349332], "type": "Point"}, "bikes": 0, "type": "Feature"}, {"properties": {"station": "书院"}, "geometry": {"coordinates": [121.8506634012499, 30.95926123507124], "type": "Point"}, "bikes": 0, "type": "Feature"}, {"properties": {"station": "云台路", "bikes": 439}, "geometry": {"coordinates": [121.50035968702596, 31.182220942193283], "type": "Point"}, "bikes": 439, "type": "Feature"}, {"properties": {"station": "云山路"}, "geometry": {"coordinates": [121.57200400870633, 31.249949676884818], "type": "Point"}, "bikes": 0, "type": "Feature"}, {"properties": {"station": "云锦路", "bikes": 202}, "geometry": {"coordinates": [121.45844263985741, 31.167577554973168], "type": "Point"}, "bikes": 202, "type": "Feature"}, {"properties": {"station": "五角场",  "bikes": 335}, "geometry": {"coordinates": [121.51449108658478, 31.29771001866499], "type": "Point"}, "bikes": 0, "type": "Feature"}, {"properties": {"station": "交通大学", "bikes": 335}, "geometry": {"coordinates": [121.43529231627353, 31.202259878368565], "type": "Point"}, "bikes": 335, "type": "Feature"}, {"properties": {"station": "人民广场", "bikes": 781}, "geometry": {"coordinates": [121.47607433975561, 31.232372540185658], "type": "Point"}, "bikes": 781, "type": "Feature"}, {"properties": {"station": "伊犁路"}, "geometry": {"coordinates": [121.4026608551536, 31.19923633686024], "type": "Point"}, "bikes": 0, "type": "Feature"}, {"properties": {"station": "兆丰路"}, "geometry": {"coordinates": [121.15004189291957, 31.28904403535332], "type": "Point"}, "bikes": 0, "type": "Feature"}, {"properties": {"station": "光明路"}, "geometry": {"coordinates": [121.11717513184017, 31.29627765857158], "type": "Point"}, "bikes": 0, "type": "Feature"}, {"properties": {"station": "共富新村"}, "geometry": {"coordinates": [121.43421300288435, 31.35512507804499], "type": "Point"}, "bikes": 0, "type": "Feature"}, {"properties": {"station": "共康路"}, "geometry": {"coordinates": [121.44667448466939, 31.319881104686967], "type": "Point"}, "bikes": 0, "type": "Feature"}, {"properties": {"station": "凌兆新村"}, "geometry": {"coordinates": [121.48928060368938, 31.141082275382466], "type": "Point"}, "bikes": 0, "type": "Feature"}, {"properties": {"station": "凌空路"}, "geometry": {"coordinates": [121.72321311908215, 31.192663076212906], "type": "Point"}, "bikes": 0, "type": "Feature"}, {"properties": {"station": "刘行"}, "geometry": {"coordinates": [121.36433766045478, 31.355867228758683], "type": "Point"}, "bikes": 0, "type": "Feature"}, {"properties": {"station": "创新中路"}, "geometry": {"coordinates": [121.67419095114124, 31.213467344574855], "type": "Point"}, "bikes": 0, "type": "Feature"}, {"properties": {"station": "剑川路"}, "geometry": {"coordinates": [121.41658960032001, 31.026447527325157], "type": "Point"}, "bikes": 0, "type": "Feature"}, {"properties": {"station": "北新泾"}, "geometry": {"coordinates": [121.37274280436714, 31.216937632130573], "type": "Point"}, "bikes": 0, "type": "Feature"}, {"properties": {"station": "北桥"}, "geometry": {"coordinates": [121.41004454530024, 31.04505751570457], "type": "Point"}, "bikes": 0, "type": "Feature"}, {"properties": {"station": "北洋泾路"}, "geometry": {"coordinates": [121.55208261748719, 31.239008075386373], "type": "Point"}, "bikes": 0, "type": "Feature"}, {"properties": {"station": "华夏东路"}, "geometry": {"coordinates": [121.68100325143205, 31.196740988071102], "type": "Point"}, "bikes": 0, "type": "Feature"}, {"properties": {"station": "华夏中路"}, "geometry": {"coordinates": [121.5831551419251, 31.175779230721187], "type": "Point"}, "bikes": 0, "type": "Feature"}, {"properties": {"station": "华夏西路"}, "geometry": {"coordinates": [121.51470734832817, 31.149885361059827], "type": "Point"}, "bikes": 0, "type": "Feature"}, {"properties": {"station": "华宁路"}, "geometry": {"coordinates": [121.39532966670728, 31.007449157110127], "type": "Point"}, "bikes": 0, "type": "Feature"}, {"properties": {"station": "南京东路", "bikes": 850}, "geometry": {"coordinates": [121.48503207513708, 31.237456155443187], "type": "Point"}, "bikes": 850, "type": "Feature"}, {"properties": {"station": "南京西路",  "bikes": 567}, "geometry": {"coordinates": [121.46059916566237, 31.22992807554203], "type": "Point"}, "bikes": 567, "type": "Feature"}, {"properties": {"station": "南翔"}, "geometry": {"coordinates": [121.30541643005107, 31.28125036360488], "type": "Point"}, "bikes": 0, "type": "Feature"}, {"properties": {"station": "南陈路"}, "geometry": {"coordinates": [121.39724931199466, 31.321325046577098], "type": "Point"}, "bikes": 0, "type": "Feature"}, {"properties": {"station": "博兴路"}, "geometry": {"coordinates": [121.58697345001835, 31.263930845790362], "type": "Point"}, "bikes": 0, "type": "Feature"}, {"properties": {"station": "友谊西路"}, "geometry": {"coordinates": [121.42772773690315, 31.38183499925312], "type": "Point"}, "bikes": 0, "type": "Feature"}, {"properties": {"station": "合川路"}, "geometry": {"coordinates": [121.3849957673268, 31.167103637855593], "type": "Point"}, "bikes": 0, "type": "Feature"}, {"properties": {"station": "同济大学"}, "geometry": {"coordinates": [121.50652000853252, 31.282406501140848], "type": "Point"}, "bikes": 0, "type": "Feature"}, {"properties": {"station": "后滩", "bikes": 80}, "geometry": {"coordinates": [121.47200452173412, 31.173167803806574], "type": "Point"}, "bikes": 80, "type": "Feature"}, {"properties": {"station": "周浦东"}, "geometry": {"coordinates": [121.60692835811028, 31.110087620616742], "type": "Point"}, "bikes": 0, "type": "Feature"}, {"properties": {"station": "呼兰路"}, "geometry": {"coordinates": [121.43769466570595, 31.34002562754343], "type": "Point"}, "bikes": 0, "type": "Feature"}, {"properties": {"station": "唐镇"}, "geometry": {"coordinates": [121.65602135182546, 31.214068921455702], "type": "Point"}, "bikes": 0, "type": "Feature"}, {"properties": {"station": "商城路", "bikes": 506}, "geometry": {"coordinates": [121.51643859052282, 31.230447413146383], "type": "Point"}, "bikes": 506, "type": "Feature"}, {"properties": {"station": "嘉善路", "bikes": 542}, "geometry": {"coordinates": [121.46094849280462, 31.202698707343735], "type": "Point"}, "bikes": 542, "type": "Feature"}, {"properties": {"station": "四川北路", "bikes": 166}, "geometry": {"coordinates": [121.48399973747985, 31.251756889214807], "type": "Point"}, "bikes": 166, "type": "Feature"}, {"properties": {"station": "四平路"}, "geometry": {"coordinates": [121.50148034098908, 31.274805275831106], "type": "Point"}, "bikes": 0, "type": "Feature"}, {"properties": {"station": "国权路"}, "geometry": {"coordinates": [121.51003336170254, 31.289237911701278], "type": "Point"}, "bikes": 0, "type": "Feature"}, {"properties": {"station": "国际客运中心", "bikes": 70}, "geometry": {"coordinates": [121.49843028008092, 31.250129787426722], "type": "Point"}, "bikes": 70, "type": "Feature"}, {"properties": {"station": "场中路"}, "geometry": {"coordinates": [121.41377978161574, 31.30262002406309], "type": "Point"}, "bikes": 0, "type": "Feature"}, {"properties": {"station": "塘桥", "bikes": 525}, "geometry": {"coordinates": [121.51835340658484, 31.209620228209804], "type": "Point"}, "bikes": 525, "type": "Feature"}, {"properties": {"station": "复兴岛"}, "geometry": {"coordinates": [121.5612282146563, 31.28076054277109], "type": "Point"}, "bikes": 0, "type": "Feature"}, {"properties": {"station": "外环路"}, "geometry": {"coordinates": [121.39300316249057, 31.120916001926393], "type": "Point"}, "bikes": 0, "type": "Feature"}, {"properties": {"station": "大世界", "bikes": 996}, "geometry": {"coordinates": [121.47947475642655, 31.227210896242205], "type": "Point"}, "bikes": 996, "type": "Feature"}, {"properties": {"station": "大华三路"}, "geometry": {"coordinates": [121.42321202580956, 31.27517662964724], "type": "Point"}, "bikes": 0, "type": "Feature"}, {"properties": {"station": "大场镇"}, "geometry": {"coordinates": [121.41712893694489, 31.292497996556726], "type": "Point"}, "bikes": 0, "type": "Feature"}, {"properties": {"station": "大木桥路", "bikes": 598}, "geometry": {"coordinates": [121.46371613240606, 31.194164436990064], "type": "Point"}, "bikes": 598, "type": "Feature"}, {"properties": {"station": "大渡河路"}, "geometry": {"coordinates": [121.39426294071832, 31.231820420843412], "type": "Point"}, "bikes": 0, "type": "Feature"}, {"properties": {"station": "大连路"}, "geometry": {"coordinates": [121.51297026669526, 31.25794020129161], "type": "Point"}, "bikes": 6, "type": "Feature"}, {"properties": {"station": "天潼路", "bikes": 599}, "geometry": {"coordinates": [121.48234303671028, 31.243816446126043], "type": "Point"}, "bikes": 599, "type": "Feature"}, {"properties": {"station": "威宁路"}, "geometry": {"coordinates": [121.38781824626372, 31.21477799218831], "type": "Point"}, "bikes": 0, "type": "Feature"}, {"properties": {"station": "娄山关路"}, "geometry": {"coordinates": [121.4038476510534, 31.211282861323728], "type": "Point"}, "bikes": 0, "type": "Feature"}, {"properties": {"station": "嫩江路"}, "geometry": {"coordinates": [121.5319922840845, 31.314685793552073], "type": "Point"}, "bikes": 0, "type": "Feature"}, {"properties": {"station": "宁国路"}, "geometry": {"coordinates": [121.5326008715005, 31.26859594508707], "type": "Point"}, "bikes": 0, "type": "Feature"}, {"properties": {"station": "安亭"}, "geometry": {"coordinates": [121.17854508954224, 31.30523007143382], "type": "Point"}, "bikes": 0, "type": "Feature"}, {"properties": {"station": "宋园路", "bikes": 110}, "geometry": {"coordinates": [121.41254617628246, 31.196470628949836], "type": "Point"}, "bikes": 110, "type": "Feature"}, {"properties": {"station": "宜山路", "bikes": 303}, "geometry": {"coordinates": [121.42757600789544, 31.186798369261055], "type": "Point"}, "bikes": 303, "type": "Feature"}, {"properties": {"station": "宝安公路"}, "geometry": {"coordinates": [121.43096622148386, 31.369581144151322], "type": "Point"}, "bikes": 0, "type": "Feature"}, {"properties": {"station": "富锦路"}, "geometry": {"coordinates": [121.4245852591679, 31.39230529539033], "type": "Point"}, "bikes": 0, "type": "Feature"}, {"properties": {"station": "小南门", "bikes": 2426}, "geometry": {"coordinates": [121.49853862067285, 31.216999254228547], "type": "Point"}, "bikes": 2426, "type": "Feature"}, {"properties": {"station": "岚皋路","bikes": 10}, "geometry": {"coordinates": [121.42189898394254, 31.255590400503888], "type": "Point"}, "bikes": 10, "type": "Feature"}, {"properties": {"station": "川沙"}, "geometry": {"coordinates": [121.69815619161315, 31.186740867939374], "type": "Point"}, "bikes": 0, "type": "Feature"}, {"properties": {"station": "巨峰路"}, "geometry": {"coordinates": [121.5893540832556, 31.280114095536703], "type": "Point"}, "bikes": 0, "type": "Feature"}, {"properties": {"station": "市光路"}, "geometry": {"coordinates": [121.532001650599, 31.32273453883129], "type": "Point"}, "bikes": 0, "type": "Feature"}, {"properties": {"station": "常熟路", "bikes": 297}, "geometry": {"coordinates": [121.45106751722625, 31.213299717796215], "type": "Point"}, "bikes": 297, "type": "Feature"}, {"properties": {"station": "广兰路"}, "geometry": {"coordinates": [121.62052743427853, 31.21074892263801], "type": "Point"}, "bikes": 0, "type": "Feature"}, {"properties": {"station": "延吉中路"}, "geometry": {"coordinates": [121.53497456322151, 31.288651033846378], "type": "Point"}, "bikes": 0, "type": "Feature"}, {"properties": {"station": "延长路"}, "geometry": {"coordinates": [121.45558458158726, 31.271364895899552], "type": "Point"}, "bikes": 0, "type": "Feature"}, {"properties": {"station": "张华浜"}, "geometry": {"coordinates": [121.49864036965609, 31.35820341386437], "type": "Point"}, "bikes": 0, "type": "Feature"}, {"properties": {"station": "张江高科"}, "geometry": {"coordinates": [121.58764005565338, 31.201691201805993], "type": "Point"}, "bikes": 0, "type": "Feature"}, {"properties": {"station": "彭浦新村"}, "geometry": {"coordinates": [121.44879069789918, 31.30567228212954], "type": "Point"}, "bikes": 0, "type": "Feature"}, {"properties": {"station": "徐家汇",  "bikes": 281}, "geometry": {"coordinates": [121.43597965916896, 31.194439896168415], "type": "Point"}, "bikes": 281, "type": "Feature"}, {"properties": {"station": "徐泾东"}, "geometry": {"coordinates": [121.30160385761648, 31.189477925236268], "type": "Point"}, "bikes": 0, "type": "Feature"}, {"properties": {"station": "御桥"}, "geometry": {"coordinates": [121.57165712572221, 31.1583345033681], "type": "Point"}, "bikes": 0, "type": "Feature"}, {"properties": {"station": "德平路"}, "geometry": {"coordinates": [121.56510172138938, 31.24588404135792], "type": "Point"}, "bikes": 0, "type": "Feature"}, {"properties": {"station": "惠南"}, "geometry": {"coordinates": [121.76253893511529, 31.053877850513217], "type": "Point"}, "bikes": 0, "type": "Feature"}, {"properties": {"station": "惠南东"}, "geometry": {"coordinates": [121.79389640193278, 31.026425187171338], "type": "Point"}, "bikes": 0, "type": "Feature"}, {"properties": {"station": "成山路", "bikes": 364}, "geometry": {"coordinates": [121.49607903064296, 31.17133021284122], "type": "Point"}, "bikes": 364, "type": "Feature"}, {"properties": {"station": "打浦桥", "bikes": 677}, "geometry": {"coordinates": [121.46907181245369, 31.207074217869074], "type": "Point"}, "bikes": 677, "type": "Feature"}, {"properties": {"station": "提篮桥", "bikes": 31}, "geometry": {"coordinates": [121.50667489411764, 31.25347871070924], "type": "Point"}, "bikes": 31, "type": "Feature"}, {"properties": {"station": "文井路"}, "geometry": {"coordinates": [121.38080060648888, 31.003579340975918], "type": "Point"}, "bikes": 0, "type": "Feature"}, {"properties": {"station": "新场"}, "geometry": {"coordinates": [121.64903859025512, 31.045390486445612], "type": "Point"}, "bikes": 0, "type": "Feature"}, {"properties": {"station": "新天地", "bikes": 506}, "geometry": {"coordinates": [121.47435200591578, 31.216102118184423], "type": "Point"}, "bikes": 506, "type": "Feature"}, {"properties": {"station": "新村路"}, "geometry": {"coordinates": [121.42282747074519, 31.264711872145607], "type": "Point"}, "bikes": 0, "type": "Feature"}, {"properties": {"station": "新江湾城"}, "geometry": {"coordinates": [121.50656404573982, 31.32881470460542], "type": "Point"}, "bikes": 0, "type": "Feature"}, {"properties": {"station": "新闸路", "bikes": 974}, "geometry": {"coordinates": [121.46820189660026, 31.238635751917222], "type": "Point"}, "bikes": 974, "type": "Feature"}, {"properties": {"station": "昌平路", "bikes": 1416}, "geometry": {"coordinates": [121.44291673466627, 31.23333395007012], "type": "Point"}, "bikes": 1416, "type": "Feature"}, {"properties": {"station": "星中路"}, "geometry": {"coordinates": [121.3686648516916, 31.158560653221556], "type": "Point"}, "bikes": 0, "type": "Feature"}, {"properties": {"station": "春申路"}, "geometry": {"coordinates": [121.38577666210973, 31.09826044134633], "type": "Point"}, "bikes": 0, "type": "Feature"}, {"properties": {"station": "曲阜路", "bikes": 790}, "geometry": {"coordinates": [121.471531743715, 31.242279462875583], "type": "Point"}, "bikes": 790, "type": "Feature"}, {"properties": {"station": "曲阳路"}, "geometry": {"coordinates": [121.49027711378072, 31.276551831215528], "type": "Point"}, "bikes": 0, "type": "Feature"}, {"properties": {"station": "曹杨路", "bikes": 433}, "geometry": {"coordinates": [121.41686527885985, 31.238467038574072], "type": "Point"}, "bikes": 433, "type": "Feature"}, {"properties": {"station": "杨思"}, "geometry": {"coordinates": [121.49350019568735, 31.160985623998865], "type": "Point"}, "bikes": 23, "type": "Feature"}, {"properties": {"station": "杨高中路"}, "geometry": {"coordinates": [121.54786323441346, 31.227178753342496], "type": "Point"}, "bikes": 0, "type": "Feature"}, {"properties": {"station": "杨高北路"}, "geometry": {"coordinates": [121.60297135570602, 31.280101268831253], "type": "Point"}, "bikes": 0, "type": "Feature"}, {"properties": {"station": "杨高南路", "bikes": 291}, "geometry": {"coordinates": [121.52385366988591, 31.18766080816169], "type": "Point"}, "bikes": 291, "type": "Feature"}, {"properties": {"station": "松江体育中心"}, "geometry": {"coordinates": [121.2307007613191, 31.015867143915393], "type": "Point"}, "bikes": 0, "type": "Feature"}, {"properties": {"station": "松江南站"}, "geometry": {"coordinates": [121.23102899443168, 30.984299385251294], "type": "Point"}, "bikes": 0, "type": "Feature"}, {"properties": {"station": "松江新城"}, "geometry": {"coordinates": [121.23071761730705, 31.030092486653793], "type": "Point"}, "bikes": 0, "type": "Feature"}, {"properties": {"station": "枫桥路", "bikes": 85}, "geometry": {"coordinates": [121.41036766565539, 31.242515117507665], "type": "Point"}, "bikes": 85, "type": "Feature"}, {"properties": {"station": "桂林路", "bikes": 137}, "geometry": {"coordinates": [121.41635873799606, 31.174539342743472], "type": "Point"}, "bikes": 137, "type": "Feature"}, {"properties": {"station": "桃浦新村"}, "geometry": {"coordinates": [121.35049466986072, 31.28144016128968], "type": "Point"}, "bikes": 0, "type": "Feature"}, {"properties": {"station": "武威路"}, "geometry": {"coordinates": [121.36249727316545, 31.279919663329377], "type": "Point"}, "bikes": 0, "type": "Feature"}, {"properties": {"station": "武宁路", "bikes": 1229}, "geometry": {"coordinates": [121.43069735630984, 31.23450295332521], "type": "Point"}, "bikes": 1229, "type": "Feature"}, {"properties": {"station": "殷高东路"}, "geometry": {"coordinates": [121.50658892229826, 31.321819989498913], "type": "Point"}, "bikes": 0, "type": "Feature"}, {"properties": {"station": "民生路"}, "geometry": {"coordinates": [121.54457057851566, 31.23615829609551], "type": "Point"}, "bikes": 0, "type": "Feature"}, {"properties": {"station": "水产路"}, "geometry": {"coordinates": [121.48766228418789, 31.382361926548132], "type": "Point"}, "bikes": 0, "type": "Feature"}, {"properties": {"station": "水城路"}, "geometry": {"coordinates": [121.3922596904041, 31.199369794009563], "type": "Point"}, "bikes": 0, "type": "Feature"}, {"properties": {"station": "汉中路", "bikes": 1031}, "geometry": {"coordinates": [121.45829824101727, 31.241874932960854], "type": "Point"}, "bikes": 1031, "type": "Feature"}, {"properties": {"station": "江浦公园"}, "geometry": {"coordinates": [121.52370510780659, 31.264468286537646], "type": "Point"}, "bikes": 0, "type": "Feature"}, {"properties": {"station": "江浦路"}, "geometry": {"coordinates": [121.51858593739529, 31.274925780533724], "type": "Point"}, "bikes": 0, "type": "Feature"}, {"properties": {"station": "江湾体育场"}, "geometry": {"coordinates": [121.5140188265192, 31.303096805225746], "type": "Point"}, "bikes": 0, "type": "Feature"}, {"properties": {"station": "江苏路", "bikes": 820}, "geometry": {"coordinates": [121.43100342732576, 31.21935537545074], "type": "Point"}, "bikes": 820, "type": "Feature"}, {"properties": {"station": "汶水路"}, "geometry": {"coordinates": [121.45023685080403, 31.292659482920037], "type": "Point"}, "bikes": 0, "type": "Feature"}, {"properties": {"station": "浦三路"}, "geometry": {"coordinates": [121.53935849476223, 31.151033540519165], "type": "Point"}, "bikes": 0, "type": "Feature"}, {"properties": {"station": "浦东大道",  "bikes": 568}, "geometry": {"coordinates": [121.51938129249397, 31.239885948887974], "type": "Point"}, "bikes": 568, "type": "Feature"}, {"properties": {"station": "浦电路_6", "bikes": 360}, "geometry": {"coordinates": [121.52880355301397, 31.220597547726918], "type": "Point"}, "bikes": 360, "type": "Feature"}, {"properties": {"station": "浦电路_4", "bikes": 216}, "geometry": {"coordinates": [121.53219997422454, 31.222255694092468], "type": "Point"}, "bikes": 216, "type": "Feature"}, {"properties": {"station": "海伦路"}, "geometry": {"coordinates": [121.48869581270898, 31.259210624621865], "type": "Point"}, "bikes": 0, "type": "Feature"}, {"properties": {"station": "淞发路"}, "geometry": {"coordinates": [121.5000504714655, 31.34451291310542], "type": "Point"}, "bikes": 0, "type": "Feature"}, {"properties": {"station": "淞虹路"}, "geometry": {"coordinates": [121.36040929664462, 31.218093093844796], "type": "Point"}, "bikes": 0, "type": "Feature"}, {"properties": {"station": "源深体育中心", "bikes": 58}, "geometry": {"coordinates": [121.53423071971604, 31.232916055601027], "type": "Point"}, "bikes": 58, "type": "Feature"}, {"properties": {"station": "滴水湖"}, "geometry": {"coordinates": [121.92992631486327, 30.90686682003928], "type": "Point"}, "bikes": 0, "type": "Feature"}, {"properties": {"station": "漕宝路", "bikes": 219}, "geometry": {"coordinates": [121.4349516747291, 31.168391092770612], "type": "Point"}, "bikes": 219, "type": "Feature"}, {"properties": {"station": "漕河泾开发区"}, "geometry": {"coordinates": [121.39742118119938, 31.170785552814646], "type": "Point"}, "bikes": 0, "type": "Feature"}, {"properties": {"station": "潘广路"}, "geometry": {"coordinates": [121.356190367134, 31.363900292554373], "type": "Point"}, "bikes": 0, "type": "Feature"}, {"properties": {"station": "灵岩南路"}, "geometry": {"coordinates": [121.49526754777136, 31.148724073806697], "type": "Point"}, "bikes": 0, "type": "Feature"}, {"properties": {"station": "爱国路"}, "geometry": {"coordinates": [121.55256237460898, 31.27982941513001], "type": "Point"}, "bikes": 0, "type": "Feature"}, {"properties": {"station": "申江路"}, "geometry": {"coordinates": [121.6268259739494, 31.280124714064726], "type": "Point"}, "bikes": 0, "type": "Feature"}, {"properties": {"station": "真北路"}, "geometry": {"coordinates": [121.38219843817527, 31.23221353098884], "type": "Point"}, "bikes": 0, "type": "Feature"}, {"properties": {"station": "真如"}, "geometry": {"coordinates": [121.40730037364763, 31.25088430786696], "type": "Point"}, "bikes": 0, "type": "Feature"}, {"properties": {"station": "祁连山南路"}, "geometry": {"coordinates": [121.36732094791691, 31.237648091883443], "type": "Point"}, "bikes": 0, "type": "Feature"}, {"properties": {"station": "祁连山路"}, "geometry": {"coordinates": [121.37718657480467, 31.271564545556238], "type": "Point"}, "bikes": 0, "type": "Feature"}, {"properties": {"station": "紫藤路"}, "geometry": {"coordinates": [121.36355197629997, 31.16945626437646], "type": "Point"}, "bikes": 0, "type": "Feature"}, {"properties": {"station": "罗山路"}, "geometry": {"coordinates": [121.59318448607397, 31.153272796020218], "type": "Point"}, "bikes": 0, "type": "Feature"}, {"properties": {"station": "翔殷路"}, "geometry": {"coordinates": [121.53195120433887, 31.30504699083188], "type": "Point"}, "bikes": 0, "type": "Feature"}, {"properties": {"station": "耀华路", "bikes": 469}, "geometry": {"coordinates": [121.49467758869665, 31.17854036464122], "type": "Point"}, "bikes": 469, "type": "Feature"}, {"properties": {"station": "老西门", "bikes": 1444}, "geometry": {"coordinates": [121.48288688906389, 31.218780662546777], "type": "Point"}, "bikes": 1444, "type": "Feature"}, {"properties": {"station": "肇嘉浜路", "bikes": 358}, "geometry": {"coordinates": [121.45049103504475, 31.199474408844278], "type": "Point"}, "bikes": 358, "type": "Feature"}, {"properties": {"station": "航中路"}, "geometry": {"coordinates": [121.35374788341416, 31.165215168594873], "type": "Point"}, "bikes": 0, "type": "Feature"}, {"properties": {"station": "航头东"}, "geometry": {"coordinates": [121.61747616775888, 31.054799695740403], "type": "Point"}, "bikes": 0, "type": "Feature"}, {"properties": {"station": "芦恒路"}, "geometry": {"coordinates": [121.49828918977042, 31.11816347787781], "type": "Point"}, "bikes": 0, "type": "Feature"}, {"properties": {"station": "花木路"}, "geometry": {"coordinates": [121.56176301852227, 31.213069124921283], "type": "Point"}, "bikes": 0, "type": "Feature"}, {"properties": {"station": "花桥"}, "geometry": {"coordinates": [121.10438199212747, 31.298791967028116], "type": "Point"}, "bikes": 0, "type": "Feature"}, {"properties": {"station": "芳华路"}, "geometry": {"coordinates": [121.54981757365816, 31.193537331718414], "type": "Point"}, "bikes": 0, "type": "Feature"}, {"properties": {"station": "莘庄"}, "geometry": {"coordinates": [121.38545381886642, 31.11109348345842], "type": "Point"}, "bikes": 0, "type": "Feature"}, {"properties": {"station": "莲花路"}, "geometry": {"coordinates": [121.40291900255396, 31.130957054094594], "type": "Point"}, "bikes": 0, "type": "Feature"}, {"properties": {"station": "蓝村路", "bikes": 256}, "geometry": {"coordinates": [121.52820118485592, 31.21188311548426], "type": "Point"}, "bikes": 256, "type": "Feature"}, {"properties": {"station": "虹口足球场"}, "geometry": {"coordinates": [121.47923238974592, 31.269919860248034], "type": "Point"}, "bikes": 0, "type": "Feature"}, {"properties": {"station": "虹桥1号航站楼"}, "geometry": {"coordinates": [121.3472375914553, 31.191646012815973], "type": "Point"}, "bikes": 0, "type": "Feature"}, {"properties": {"station": "虹桥火车站"}, "geometry": {"coordinates": [121.32011899380272, 31.193784547279197], "type": "Point"}, "bikes": 0, "type": "Feature"}, {"properties": {"station": "虹桥路",  "bikes": 302}, "geometry": {"coordinates": [121.42111984295019, 31.197102198908212], "type": "Point"}, "bikes": 302, "type": "Feature"}, {"properties": {"station": "行知路"}, "geometry": {"coordinates": [121.4217897975075, 31.28468526993067], "type": "Point"}, "bikes": 0, "type": "Feature"}, {"properties": {"station": "衡山路", "bikes": 241}, "geometry": {"coordinates": [121.44750862326514, 31.205822678771483], "type": "Point"}, "bikes": 241, "type": "Feature"}, {"properties": {"station": "西藏北路"}, "geometry": {"coordinates": [121.46915265194492, 31.263645861037535], "type": "Point"}, "bikes": 0, "type": "Feature"}, {"properties": {"station": "西藏南路", "bikes": 863}, "geometry": {"coordinates": [121.48962355279374, 31.201661975132666], "type": "Point"}, "bikes": 863, "type": "Feature"}, {"properties": {"station": "豫园", "bikes": 1574}, "geometry": {"coordinates": [121.48752572848137, 31.227735008642448], "type": "Point"}, "bikes": 1574, "type": "Feature"}, {"properties": {"station": "通河新村"}, "geometry": {"coordinates": [121.44164435503134, 31.330980358839064], "type": "Point"}, "bikes": 0, "type": "Feature"}, {"properties": {"station": "邮电新村"}, "geometry": {"coordinates": [121.49430013985378, 31.268427296119075], "type": "Point"}, "bikes": 0, "type": "Feature"}, {"properties": {"station": "醉白池"}, "geometry": {"coordinates": [121.22894313665368, 31.00070304562812], "type": "Point"}, "bikes": 0, "type": "Feature"}, {"properties": {"station": "金京路"}, "geometry": {"coordinates": [121.6149962993077, 31.279669591945282], "type": "Point"}, "bikes": 0, "type": "Feature"}, {"properties": {"station": "金平路"}, "geometry": {"coordinates": [121.41024786227776, 31.011247317511167], "type": "Point"}, "bikes": 0, "type": "Feature"}, {"properties": {"station": "金桥路"}, "geometry": {"coordinates": [121.58167862969073, 31.256989696086286], "type": "Point"}, "bikes": 0, "type": "Feature"}, {"properties": {"station": "金沙江西路"}, "geometry": {"coordinates": [121.33520966495395, 31.24117206131579], "type": "Point"}, "bikes": 0, "type": "Feature"}, {"properties": {"station": "金沙江路", "bikes": 142}, "geometry": {"coordinates": [121.41187131127933, 31.231313463340822], "type": "Point"}, "bikes": 142, "type": "Feature"}, {"properties": {"station": "金海路"}, "geometry": {"coordinates": [121.63865065250674, 31.263112802269728], "type": "Point"}, "bikes": 0, "type": "Feature"}, {"properties": {"station": "金科路"}, "geometry": {"coordinates": [121.6020352756639, 31.20418883832002], "type": "Point"}, "bikes": 0, "type": "Feature"}, {"properties": {"station": "金运路"}, "geometry": {"coordinates": [121.31997551738976, 31.240943229197082], "type": "Point"}, "bikes": 0, "type": "Feature"}, {"properties": {"station": "银都路"}, "geometry": {"coordinates": [121.390298766833, 31.08930149023658], "type": "Point"}, "bikes": 0, "type": "Feature"}, {"properties": {"station": "锦江乐园"}, "geometry": {"coordinates": [121.41414636546688, 31.142197480098318], "type": "Point"}, "bikes": 0, "type": "Feature"}, {"properties": {"station": "锦绣路"}, "geometry": {"coordinates": [121.53995367278178, 31.18762877798835], "type": "Point"}, "bikes": 0, "type": "Feature"}, {"properties": {"station": "镇坪路", "bikes": 561}, "geometry": {"coordinates": [121.43116067383117, 31.24672618370278], "type": "Point"}, "bikes": 561, "type": "Feature"}, {"properties": {"station": "长寿路", "bikes": 1497}, "geometry": {"coordinates": [121.43775284956324, 31.240417282361236], "type": "Point"}, "bikes": 1497, "type": "Feature"}, {"properties": {"station": "长清路", "bikes": 317}, "geometry": {"coordinates": [121.48739104601088, 31.17554848661649], "type": "Point"}, "bikes": 317, "type": "Feature"}, {"properties": {"station": "闵行开发区"}, "geometry": {"coordinates": [121.36975265608858, 31.000609768912852], "type": "Point"}, "bikes": 0, "type": "Feature"}, {"properties": {"station": "陆家嘴", "bikes": 378}, "geometry": {"coordinates": [121.50256727654833, 31.23814739265423], "type": "Point"}, "bikes": 378, "type": "Feature"}, {"properties": {"station": "陆家浜路", "bikes": 1809}, "geometry": {"coordinates": [121.48597012964738, 31.211945518488275], "type": "Point"}, "bikes": 1809, "type": "Feature"}, {"properties": {"station": "陕西南路", "bikes": 386}, "geometry": {"coordinates": [121.45859746110055, 31.21492280946765], "type": "Point"}, "bikes": 386, "type": "Feature"}, {"properties": {"station": "隆德路", "bikes": 789}, "geometry": {"coordinates": [121.42364519502377, 31.230509828824427], "type": "Point"}, "bikes": 789, "type": "Feature"}, {"properties": {"station": "隆昌路"}, "geometry": {"coordinates": [121.54502584843327, 31.275498829422254], "type": "Point"}, "bikes": 0, "type": "Feature"}, {"properties": {"station": "静安寺", "bikes": 626}, "geometry": {"coordinates": [121.44816628042388, 31.224064648787447], "type": "Point"}, "bikes": 626, "type": "Feature"}, {"properties": {"station": "鞍山新村"}, "geometry": {"coordinates": [121.50922996919664, 31.272944660509705], "type": "Point"}, "bikes": 0, "type": "Feature"}, {"properties": {"station": "顾村公园"}, "geometry": {"coordinates": [121.37226804147348, 31.345815019057852], "type": "Point"}, "bikes": 0, "type": "Feature"}, {"properties": {"station": "颛桥"}, "geometry": {"coordinates": [121.40185735345565, 31.066982951796827], "type": "Point"}, "bikes": 0, "type": "Feature"}, {"properties": {"station": "马当路"}, "geometry": {"coordinates": [121.47645886452979, 31.20934106647936], "type": "Point"}, "bikes": 789, "type": "Feature"}, {"properties": {"station": "高科西路", "bikes": 364}, "geometry": {"coordinates": [121.51005922929785, 31.185506555251425], "type": "Point"}, "bikes": 364, "type": "Feature"}, {"properties": {"station": "高青路", "bikes": 2}, "geometry": {"coordinates": [121.51570721847065, 31.15941280909692], "type": "Point"}, "bikes": 2, "type": "Feature"}, {"properties": {"station": "鲁班路", "bikes": 682}, "geometry": {"coordinates": [121.47517054900992, 31.199177804563117], "type": "Point"}, "bikes": 682, "type": "Feature"}, {"properties": {"station": "鹤沙航城"}, "geometry": {"coordinates": [121.61127257950602, 31.07756339704106], "type": "Point"}, "bikes": 0, "type": "Feature"}, {"properties": {"station": "黄兴公园"}, "geometry": {"coordinates": [121.53318129581368, 31.29579533366537], "type": "Point"}, "bikes": 0, "type": "Feature"}, {"properties": {"station": "黄兴路"}, "geometry": {"coordinates": [121.5273704901428, 31.278246910967876], "type": "Point"}, "bikes": 0, "type": "Feature"}, {"properties": {"station": "黄陂南路", "bikes": 646}, "geometry": {"coordinates": [121.47387516496809, 31.22301515841841], "type": "Point"}, "bikes": 646, "type": "Feature"}, {"properties": {"station": "龙华", "bikes": 348}, "geometry": {"coordinates": [121.45327813737393, 31.17293561191671], "type": "Point"}, "bikes": 348, "type": "Feature"}, {"properties": {"station": "龙华中路", "bikes": 432}, "geometry": {"coordinates": [121.4574426404483, 31.18478179512045], "type": "Point"}, "bikes": 432, "type": "Feature"}, {"properties": {"station": "龙柏新村"}, "geometry": {"coordinates": [121.37077477867552, 31.177401816545633], "type": "Point"}, "bikes": 0, "type": "Feature"}, {"properties": {"station": "龙溪路"}, "geometry": {"coordinates": [121.38140210551086, 31.19512808135995], "type": "Point"}, "bikes": 0, "type": "Feature"}, {"properties": {"station": "龙耀路",  "bikes": 14}, "geometry": {"coordinates": [121.45974559966282, 31.159578424681566], "type": "Point"}, "bikes": 14, "type": "Feature"}, {"properties": {"station": "龙阳路"}, "geometry": {"coordinates": [121.55779143957028, 31.20195129492995], "type": "Point"}, "bikes": 0, "type": "Feature"}, {"properties": {"station": "上海大学站"}, "geometry": {"coordinates": [121.388821, 31.320586], "type": "Point"}, "bikes": 0, "type": "Feature"}, {"properties": {"station": "上海汽车城"}, "geometry": {"coordinates": [121.180783, 31.285419], "type": "Point"}, "bikes": 0, "type": "Feature"}, {"properties": {"station": "上海赛车场"}, "geometry": {"coordinates": [121.226054, 31.331818], "type": "Point"}, "bikes": 0, "type": "Feature"}, {"properties": {"station": "上海野生动物园"}, "geometry": {"coordinates": [121.699255, 31.050177], "type": "Point"}, "bikes": 0, "type": "Feature"}, {"properties": {"station": "东宝兴路"}, "geometry": {"coordinates": [121.480241, 31.259775], "type": "Point"}, "bikes": 0, "type": "Feature"}, {"properties": {"station": "东靖路"}, "geometry": {"coordinates": [121.588851, 31.290661], "type": "Point"}, "bikes": 0, "type": "Feature"}, {"properties": {"station": "中潭路", "bikes": 97}, "geometry": {"coordinates": [121.441112, 31.254585], "type": "Point"}, "bikes": 97, "type": "Feature"}, {"properties": {"station": "五洲大道"}, "geometry": {"coordinates": [121.589314, 31.302582], "type": "Point"}, "bikes": 0, "type": "Feature"}, {"properties": {"station": "五莲路"}, "geometry": {"coordinates": [121.587957, 31.272067], "type": "Point"}, "bikes": 0, "type": "Feature"}, {"properties": {"station": "佘山"}, "geometry": {"coordinates": [121.22972, 31.104461], "type": "Point"}, "bikes": 0, "type": "Feature"}, {"properties": {"station": "南浦大桥", "bikes": 1199}, "geometry": {"coordinates": [121.499572, 31.208589], "type": "Point"}, "bikes": 1199, "type": "Feature"}, {"properties": {"station": "友谊路"}, "geometry": {"coordinates": [121.475948, 31.404007], "type": "Point"}, "bikes": 0, "type": "Feature"}, {"properties": {"station": "嘉定北"}, "geometry": {"coordinates": [121.237327, 31.391504], "type": "Point"}, "bikes": 0, "type": "Feature"}, {"properties": {"station": "嘉定新城"}, "geometry": {"coordinates": [121.254299, 31.330069], "type": "Point"}, "bikes": 0, "type": "Feature"}, {"properties": {"station": "嘉定西"}, "geometry": {"coordinates": [121.227862, 31.377092], "type": "Point"}, "bikes": 0, "type": "Feature"}, {"properties": {"station": "外高桥保税区北"}, "geometry": {"coordinates": [121.586912, 31.347832], "type": "Point"}, "bikes": 0, "type": "Feature"}, {"properties": {"station": "外高桥保税区南"}, "geometry": {"coordinates": [121.60199, 31.321596], "type": "Point"}, "bikes": 0, "type": "Feature"}, {"properties": {"station": "大柏树"}, "geometry": {"coordinates": [121.483227, 31.289546], "type": "Point"}, "bikes": 0, "type": "Feature"}, {"properties": {"station": "宝山路", "bikes": 329}, "geometry": {"coordinates": [121.476377, 31.251571], "type": "Point"}, "bikes": 329, "type": "Feature"}, {"properties": {"station": "宝杨路"}, "geometry": {"coordinates": [121.479583, 31.395309], "type": "Point"}, "bikes": 0, "type": "Feature"}, {"properties": {"station": "延安西路", "bikes": 303}, "geometry": {"coordinates": [121.417064, 31.209581], "type": "Point"}, "bikes": 303, "type": "Feature"}, {"properties": {"station": "昌吉东路"}, "geometry": {"coordinates": [121.200381, 31.293546], "type": "Point"}, "bikes": 0, "type": "Feature"}, {"properties": {"station": "李子园路"}, "geometry": {"coordinates": [121.389969, 31.269014], "type": "Point"}, "bikes": 0, "type": "Feature"}, {"properties": {"station": "松江大学城"}, "geometry": {"coordinates": [121.212038, 31.049385], "type": "Point"}, "bikes": 0, "type": "Feature"}, {"properties": {"station": "殷高西路"}, "geometry": {"coordinates": [121.484969, 31.319862], "type": "Point"}, "bikes": 0, "type": "Feature"}, {"properties": {"station": "江月路"}, "geometry": {"coordinates": [121.508628, 31.084015], "type": "Point"}, "bikes": 0, "type": "Feature"}, {"properties": {"station": "江杨北路"}, "geometry": {"coordinates": [121.439814, 31.407859], "type": "Point"}, "bikes": 0, "type": "Feature"}, {"properties": {"station": "江湾镇"}, "geometry": {"coordinates": [121.485079, 31.305508], "type": "Point"}, "bikes": 0, "type": "Feature"}, {"properties": {"station": "沈杜公路"}, "geometry": {"coordinates": [121.512228, 31.061418], "type": "Point"}, "bikes": 0, "type": "Feature"}, {"properties": {"station": "泗泾"}, "geometry": {"coordinates": [121.260441, 31.118319], "type": "Point"}, "bikes": 0, "type": "Feature"}, {"properties": {"station": "洞泾"}, "geometry": {"coordinates": [121.230475, 31.084481], "type": "Point"}, "bikes": 0, "type": "Feature"}, {"properties": {"station": "洲海路"}, "geometry": {"coordinates": [121.589409, 31.31231], "type": "Point"}, "bikes": 0, "type": "Feature"}, {"properties": {"station": "浦东国际机场"}, "geometry": {"coordinates": [121.805863, 31.150475], "type": "Point"}, "bikes": 0, "type": "Feature"}, {"properties": {"station": "浦江镇"}, "geometry": {"coordinates": [121.506386, 31.096238], "type": "Point"}, "bikes": 0, "type": "Feature"}, {"properties": {"station": "海天三路"}, "geometry": {"coordinates": [121.797049, 31.168349], "type": "Point"}, "bikes": 0, "type": "Feature"}, {"properties": {"station": "淞浜路"}, "geometry": {"coordinates": [121.492829, 31.371073], "type": "Point"}, "bikes": 0, "type": "Feature"}, {"properties": {"station": "港城路"}, "geometry": {"coordinates": [121.574851, 31.353017], "type": "Point"}, "bikes": 0, "type": "Feature"}, {"properties": {"station": "漕溪路", "bikes": 411}, "geometry": {"coordinates": [121.438366, 31.176727], "type": "Point"}, "bikes": 411, "type": "Feature"}, {"properties": {"station": "白银路"}, "geometry": {"coordinates": [121.245428, 31.345181], "type": "Point"}, "bikes": 0, "type": "Feature"}, {"properties": {"station": "石龙路"}, "geometry": {"coordinates": [121.443193, 31.157918], "type": "Point"}, "bikes": 0, "type": "Feature"}, {"properties": {"station": "祁华路"}, "geometry": {"coordinates": [121.373568, 31.322309], "type": "Point"}, "bikes": 0, "type": "Feature"}, {"properties": {"station": "罗南新村"}, "geometry": {"coordinates": [121.357447, 31.388727], "type": "Point"}, "bikes": 0, "type": "Feature"}, {"properties": {"station": "美兰湖"}, "geometry": {"coordinates": [121.350131, 31.401718], "type": "Point"}, "bikes": 0, "type": "Feature"}, {"properties": {"station": "联航路"}, "geometry": {"coordinates": [121.510581, 31.073425], "type": "Point"}, "bikes": 0, "type": "Feature"}, {"properties": {"station": "航津路"}, "geometry": {"coordinates": [121.593981, 31.335434], "type": "Point"}, "bikes": 0, "type": "Feature"}, {"properties": {"station": "虹桥2号航站楼"}, "geometry": {"coordinates": [121.326252, 31.194222], "type": "Point"}, "bikes": 0, "type": "Feature"}, {"properties": {"station": "赤峰路"}, "geometry": {"coordinates": [121.48249, 31.281247], "type": "Point"}, "bikes": 0, "type": "Feature"}, {"properties": {"station": "远东大道"}, "geometry": {"coordinates": [121.755373, 31.199436], "type": "Point"}, "bikes": 0, "type": "Feature"}, {"properties": {"station": "铁力路"}, "geometry": {"coordinates": [121.461211, 31.408161], "type": "Point"}, "bikes": 0, "type": "Feature"}, {"properties": {"station": "长江南路"}, "geometry": {"coordinates": [121.491551, 31.332043], "type": "Point"}, "bikes": 0, "type": "Feature"}, {"properties": {"station": "马陆"}, "geometry": {"coordinates": [121.276831, 31.319459], "type": "Point"}, "bikes": 0, "type": "Feature"}, {"properties": {"station": "龙漕路"}, "geometry": {"coordinates": [121.444391, 31.169453], "type": "Point"}, "bikes": 293, "type": "Feature"}], "type": "FeatureCollection"}
